County,Latitude,Longitude,Hover
Hartlepool,54.72250988,-1.242084715,Hartlepool<br>Pop: 93663
Middlesbrough,54.58020835,-1.19856538,Middlesbrough<br>Pop: 140980
Redcar and Cleveland,54.57740206,-1.200985485,Redcar and Cleveland<br>Pop: 137150
Stockton-on-Tees,54.50907417,-1.30773245,Stockton-on-Tees<br>Pop: 197348
Darlington,54.54379006,-1.539034879,Darlington<br>Pop: 106803
Halton,53.32845694,-2.659788098,Halton<br>Pop: 129410
Warrington,53.38989224,-2.57205332,Warrington<br>Pop: 210014
Blackburn with Darwen,53.69815585,-2.477396338,Blackburn with Darwen<br>Pop: 149696
Blackpool,53.82035288,-3.024528529,Blackpool<br>Pop: 139446
"Kingston upon Hull, City of",53.75483233,-0.369579109,"Kingston upon Hull, City of<br>Pop: 259778"
East Riding of Yorkshire,53.68079336,-0.783988286,East Riding of Yorkshire<br>Pop: 341173
North East Lincolnshire,53.54417195,-0.155119119,North East Lincolnshire<br>Pop: 159563
North Lincolnshire,53.57538927,-0.78973942,North Lincolnshire<br>Pop: 172292
York,53.95850178,-1.060241373,York<br>Pop: 210618
Derby,52.9145814,-1.469069653,Derby<br>Pop: 257302
Leicester,52.63492667,-1.13406975,Leicester<br>Pop: 354224
Rutland,52.63144503,-0.67573057,Rutland<br>Pop: 39927
Nottingham,52.95992652,-1.180247361,Nottingham<br>Pop: 332900
"Herefordshire, County of",52.14317656,-2.721165456,"Herefordshire, County of<br>Pop: 192801"
Telford and Wrekin,52.74960643,-2.485108542,Telford and Wrekin<br>Pop: 179854
Stoke-on-Trent,53.01755884,-2.155921447,Stoke-on-Trent<br>Pop: 256375
Bath and North East Somerset,51.35975464,-2.512136193,Bath and North East Somerset<br>Pop: 193282
"Bristol, City of",51.46178083,-2.612425927,"Bristol, City of<br>Pop: 463377"
North Somerset,51.33959506,-3.10822656,North Somerset<br>Pop: 215052
South Gloucestershire,51.55096639,-2.437274501,South Gloucestershire<br>Pop: 285093
Plymouth,50.33374948,-4.150256444,Plymouth<br>Pop: 262100
Torbay,50.3793664,-3.505654435,Torbay<br>Pop: 136264
Bournemouth,50.74467972,-1.833370364,Bournemouth<br>Pop: 131777
Poole,50.73195737,-2.001814091,Poole<br>Pop: 131777
Swindon,51.59830513,-1.741688716,Swindon<br>Pop: 222193
Peterborough,52.614089,-0.319550648,Peterborough<br>Pop: 202259
Luton,51.89318766,-0.415030433,Luton<br>Pop: 213052
Southend-on-Sea,51.53548174,0.637560823,Southend-on-Sea<br>Pop: 183125
Thurrock,51.51724634,0.53659224,Thurrock<br>Pop: 174341
Medway,51.39239957,0.587811531,Medway<br>Pop: 278556
Bracknell Forest,51.39589914,-0.754208569,Bracknell Forest<br>Pop: 122549
West Berkshire,51.42945983,-1.292284207,West Berkshire<br>Pop: 158450
Reading,51.45776709,-0.988017794,Reading<br>Pop: 161780
Slough,51.50694842,-0.579536322,Slough<br>Pop: 149539
Windsor and Maidenhead,51.4765071,-0.679799221,Windsor and Maidenhead<br>Pop: 151422
Wokingham,51.43408208,-0.902689368,Wokingham<br>Pop: 171119
Milton Keynes,52.08194456,-0.751714982,Milton Keynes<br>Pop: 269457
Brighton and Hove,50.83380361,-0.11076069,Brighton and Hove<br>Pop: 290885
Portsmouth,50.75038708,-1.072105043,Portsmouth<br>Pop: 214905
Southampton,50.91800781,-1.392992141,Southampton<br>Pop: 252520
Isle of Wight,50.66265244,-1.589209025,Isle of Wight<br>Pop: 141771
County Durham,54.73055111,-1.740141837,County Durham<br>Pop: 530094
Cheshire East,53.18743434,-2.372452047,Cheshire East<br>Pop: 384152
Cheshire West and Chester,53.29663213,-3.10979938,Cheshire West and Chester<br>Pop: 343071
Shropshire,52.65973183,-2.736551867,Shropshire<br>Pop: 323136
Cornwall,50.01233769,-5.266675331,Cornwall<br>Pop: 569578
Isles of Scilly,49.86506026,-6.399441223,Isles of Scilly<br>Pop: 2224
Wiltshire,51.35128303,-1.935335361,Wiltshire<br>Pop: 500024
Bedford,52.19078484,-0.449453211,Bedford<br>Pop: 173292
Central Bedfordshire,51.994029,-0.431175286,Central Bedfordshire<br>Pop: 288648
Northumberland,55.33530598,-1.538281651,Northumberland<br>Pop: 322434
Aylesbury Vale,51.88845454,-0.894687434,Aylesbury Vale<br>Pop: 199448
Chiltern,51.67973032,-0.623471036,Chiltern<br>Pop: 95927
South Bucks,51.55217317,-0.589665523,South Bucks<br>Pop: 70043
Wycombe,51.66177428,-0.824431934,Wycombe<br>Pop: 174641
Cambridge,52.2021442,0.129441039,Cambridge<br>Pop: 124798
East Cambridgeshire,52.42000705,0.094274093,East Cambridgeshire<br>Pop: 89840
Fenland,52.5336193,0.086905629,Fenland<br>Pop: 101850
Huntingdonshire,52.35271755,0.031253708,Huntingdonshire<br>Pop: 177963
South Cambridgeshire,52.16770926,0.076965624,South Cambridgeshire<br>Pop: 159086
Allerdale,54.85994325,-3.290770083,Allerdale<br>Pop: 97761
Barrow-in-Furness,54.06490569,-3.201580883,Barrow-in-Furness<br>Pop: 67049
Carlisle,54.93385461,-3.001400191,Carlisle<br>Pop: 108678
Copeland,54.21847178,-3.253212222,Copeland<br>Pop: 68183
Eden,54.62555671,-2.662903274,Eden<br>Pop: 53253
South Lakeland,54.1433902,-2.998512206,South Lakeland<br>Pop: 105088
Amber Valley,53.03124515,-1.470121418,Amber Valley<br>Pop: 128147
Bolsover,53.19955198,-1.282759167,Bolsover<br>Pop: 80562
Chesterfield,53.25357108,-1.413473149,Chesterfield<br>Pop: 104900
Derbyshire Dales,53.09839642,-1.723989203,Derbyshire Dales<br>Pop: 72325
Erewash,52.93950968,-1.340563323,Erewash<br>Pop: 115371
High Peak,53.34889758,-1.882455164,High Peak<br>Pop: 92666
North East Derbyshire,53.24469158,-1.430855839,North East Derbyshire<br>Pop: 101462
South Derbyshire,52.82661989,-1.561653453,South Derbyshire<br>Pop: 107261
East Devon,50.7636381,-3.259457797,East Devon<br>Pop: 146284
Exeter,50.71082232,-3.504646418,Exeter<br>Pop: 131405
Mid Devon,50.85724814,-3.596812178,Mid Devon<br>Pop: 82311
North Devon,51.09804406,-3.986642641,North Devon<br>Pop: 97145
South Hams,50.2793198,-3.900203076,South Hams<br>Pop: 87004
Teignbridge,50.5853561,-3.649383925,Teignbridge<br>Pop: 134163
Torridge,50.88246924,-4.248366721,Torridge<br>Pop: 68267
West Devon,50.6480371,-4.055569145,West Devon<br>Pop: 55796
Christchurch,50.72227286,-1.741597867,Christchurch<br>Pop: 131777
East Dorset,50.84974559,-1.944901216,East Dorset<br>Pop: 126169
North Dorset,50.90187147,-2.296830569,North Dorset<br>Pop: 126169
Purbeck,50.61631941,-2.225211734,Purbeck<br>Pop: 47135
West Dorset,50.80913869,-2.604832015,West Dorset<br>Pop: 126169
Weymouth and Portland,50.55389346,-2.450228448,Weymouth and Portland<br>Pop: 65865
Eastbourne,50.78523643,0.266922204,Eastbourne<br>Pop: 103745
Hastings,50.87092562,0.57293048,Hastings<br>Pop: 92661
Lewes,50.77164556,0.151289588,Lewes<br>Pop: 103268
Rother,50.95726736,0.52551456,Rother<br>Pop: 96080
Wealden,50.98860027,0.195264201,Wealden<br>Pop: 161475
Basildon,51.61751864,0.552830723,Basildon<br>Pop: 187199
Braintree,51.94482104,0.606804289,Braintree<br>Pop: 152604
Brentwood,51.65644873,0.30660393,Brentwood<br>Pop: 77021
Castle Point,51.5180108,0.523734303,Castle Point<br>Pop: 90376
Chelmsford,51.61681705,0.554437871,Chelmsford<br>Pop: 178388
Colchester,51.77362661,0.895614019,Colchester<br>Pop: 194706
Epping Forest,51.71868636,0.166366255,Epping Forest<br>Pop: 131689
Harlow,51.77166883,0.101162984,Harlow<br>Pop: 87067
Maldon,51.63579477,0.737809907,Maldon<br>Pop: 64926
Rochford,51.56728785,0.829682379,Rochford<br>Pop: 87368
Tendring,51.80343154,1.032750072,Tendring<br>Pop: 146561
Uttlesford,51.90450379,0.298472429,Uttlesford<br>Pop: 91284
Cheltenham,51.89876861,-2.077724917,Cheltenham<br>Pop: 116306
Cotswold,51.80973916,-1.910374638,Cotswold<br>Pop: 89862
Forest of Dean,51.84934129,-2.48786992,Forest of Dean<br>Pop: 86791
Gloucester,51.84646371,-2.250849455,Gloucester<br>Pop: 129128
Stroud,51.70384034,-2.29787371,Stroud<br>Pop: 119964
Tewkesbury,51.93641492,-2.094736535,Tewkesbury<br>Pop: 95019
Basingstoke and Deane,51.28716341,-1.204951091,Basingstoke and Deane<br>Pop: 176582
East Hampshire,51.06038315,-0.945183515,East Hampshire<br>Pop: 122308
Eastleigh,50.91817183,-1.314956182,Eastleigh<br>Pop: 133584
Fareham,50.86216621,-1.225008464,Fareham<br>Pop: 116233
Gosport,50.80781873,-1.148173017,Gosport<br>Pop: 84838
Hart,51.29333248,-0.891082704,Hart<br>Pop: 97073
Havant,50.82456429,-1.008745348,Havant<br>Pop: 126220
New Forest,50.77955336,-1.383364848,New Forest<br>Pop: 180086
Rushmoor,51.28074952,-0.757296826,Rushmoor<br>Pop: 94599
Test Valley,50.92995843,-1.483728046,Test Valley<br>Pop: 126160
Winchester,51.00969674,-1.22025851,Winchester<br>Pop: 124859
Broxbourne,51.73982164,-0.038204112,Broxbourne<br>Pop: 97279
Dacorum,51.7825966,-0.552949923,Dacorum<br>Pop: 154763
Hertsmere,51.67972547,-0.286258427,Hertsmere<br>Pop: 104919
North Hertfordshire,51.94549467,-0.199442488,North Hertfordshire<br>Pop: 133570
Three Rivers,51.66574706,-0.453369621,Three Rivers<br>Pop: 93323
Watford,51.66395704,-0.401592263,Watford<br>Pop: 96577
Ashford,51.12314336,0.802352392,Ashford<br>Pop: 130032
Canterbury,51.29604667,1.123094966,Canterbury<br>Pop: 165394
Dartford,51.43636145,0.244818814,Dartford<br>Pop: 112606
Dover,51.28749922,1.345972228,Dover<br>Pop: 118131
Gravesham,51.40941104,0.391613635,Gravesham<br>Pop: 106939
Maidstone,51.21844403,0.569843611,Maidstone<br>Pop: 171826
Sevenoaks,51.25736319,0.168808459,Sevenoaks<br>Pop: 120750
Shepway,51.07993542,1.000458899,Shepway<br>Pop: 112578
Swale,51.35773501,0.824700971,Swale<br>Pop: 150082
Thanet,51.31342328,1.366958035,Thanet<br>Pop: 141922
Tonbridge and Malling,51.25240385,0.336547177,Tonbridge and Malling<br>Pop: 132153
Tunbridge Wells,51.11887969,0.413564212,Tunbridge Wells<br>Pop: 118724
Burnley,53.78405569,-2.240757837,Burnley<br>Pop: 88920
Chorley,53.63067201,-2.807901101,Chorley<br>Pop: 118216
Fylde,53.7780706,-2.924056349,Fylde<br>Pop: 80780
Hyndburn,53.76654265,-2.384957304,Hyndburn<br>Pop: 81043
Lancaster,53.94673557,-2.885479242,Lancaster<br>Pop: 146038
Pendle,53.86715218,-2.215920391,Pendle<br>Pop: 92112
Preston,53.75365756,-2.790929827,Preston<br>Pop: 143135
Ribble Valley,53.8897308,-2.420957203,Ribble Valley<br>Pop: 60888
Rossendale,53.68143351,-2.265476121,Rossendale<br>Pop: 71482
South Ribble,53.72804939,-2.718167927,South Ribble<br>Pop: 110788
West Lancashire,53.64065801,-2.806196357,West Lancashire<br>Pop: 114306
Wyre,53.85228298,-2.941166869,Wyre<br>Pop: 112091
Blaby,52.58430733,-1.205380103,Blaby<br>Pop: 101526
Charnwood,52.73353832,-1.144040889,Charnwood<br>Pop: 185851
Harborough,52.53422287,-0.945716155,Harborough<br>Pop: 93807
Hinckley and Bosworth,52.62125245,-1.356079381,Hinckley and Bosworth<br>Pop: 113136
Melton,52.79480769,-0.85293264,Melton<br>Pop: 51209
North West Leicestershire,52.7569846,-1.415239878,North West Leicestershire<br>Pop: 103611
Oadby and Wigston,52.58012544,-1.099685445,Oadby and Wigston<br>Pop: 57015
Boston,52.86615893,-0.054770075,Boston<br>Pop: 70173
East Lindsey,53.44765025,0.192489459,East Lindsey<br>Pop: 141727
Lincoln,53.21949492,-0.557952132,Lincoln<br>Pop: 99299
North Kesteven,53.08926276,-0.498316976,North Kesteven<br>Pop: 116915
South Holland,52.79594934,0.237540709,South Holland<br>Pop: 95019
South Kesteven,52.83031947,-0.528576283,South Kesteven<br>Pop: 142424
West Lindsey,53.38007257,-0.776908196,West Lindsey<br>Pop: 95667
Breckland,52.59446141,0.846635266,Breckland<br>Pop: 139968
Broadland,52.62513305,1.335501723,Broadland<br>Pop: 130783
Great Yarmouth,52.56388741,1.666511409,Great Yarmouth<br>Pop: 99336
King's Lynn and West Norfolk,52.66201056,0.261281573,King's Lynn and West Norfolk<br>Pop: 151383
North Norfolk,52.6846194,1.513326761,North Norfolk<br>Pop: 104837
Norwich,52.6164561,1.319091566,Norwich<br>Pop: 140573
South Norfolk,52.5627741,1.618434266,South Norfolk<br>Pop: 140880
Corby,52.50735897,-0.697141514,Corby<br>Pop: 72218
Daventry,52.31350033,-1.097138089,Daventry<br>Pop: 85950
East Northamptonshire,52.49404957,-0.538475786,East Northamptonshire<br>Pop: 94527
Kettering,52.44373505,-0.77892175,Kettering<br>Pop: 101776
Northampton,52.244124,-0.87324356,Northampton<br>Pop: 224610
South Northamptonshire,52.12073295,-1.061761674,South Northamptonshire<br>Pop: 94490
Wellingborough,52.30568289,-0.717953429,Wellingborough<br>Pop: 79707
Craven,54.05993868,-2.193640794,Craven<br>Pop: 57142
Hambleton,54.28991163,-1.314890117,Hambleton<br>Pop: 91594
Harrogate,54.03755406,-1.504353285,Harrogate<br>Pop: 160831
Richmondshire,54.37970524,-1.875628943,Richmondshire<br>Pop: 53730
Ryedale,54.19148165,-0.8169494,Ryedale<br>Pop: 55380
Scarborough,54.2431344,-0.339478109,Scarborough<br>Pop: 108757
Selby,53.83055133,-1.016086454,Selby<br>Pop: 90620
Ashfield,53.08517538,-1.269244343,Ashfield<br>Pop: 127918
Bassetlaw,53.25749751,-0.771994152,Bassetlaw<br>Pop: 117459
Broxtowe,52.98251114,-1.273369951,Broxtowe<br>Pop: 114033
Gedling,53.02089886,-1.106174624,Gedling<br>Pop: 117896
Mansfield,53.17471547,-1.176914302,Mansfield<br>Pop: 109313
Newark and Sherwood,53.11141011,-0.887203294,Newark and Sherwood<br>Pop: 122421
Rushcliffe,52.8798908,-1.057825263,Rushcliffe<br>Pop: 119184
Cherwell,51.97465323,-1.268242265,Cherwell<br>Pop: 150503
Oxford,51.75318919,-1.237878531,Oxford<br>Pop: 152457
South Oxfordshire,51.64694398,-1.075999515,South Oxfordshire<br>Pop: 142057
Vale of White Horse,51.64882358,-1.45846872,Vale of White Horse<br>Pop: 136007
West Oxfordshire,51.84059001,-1.50939265,West Oxfordshire<br>Pop: 110643
Mendip,51.20358867,-2.547080291,Mendip<br>Pop: 115587
Sedgemoor,51.1226798,-3.061324547,Sedgemoor<br>Pop: 123178
South Somerset,50.97676373,-2.6845482,South Somerset<br>Pop: 168345
Taunton Deane,51.07128483,-2.932687993,Taunton Deane<br>Pop: 118979
West Somerset,51.13287577,-3.434076446,West Somerset<br>Pop: 155115
Cannock Chase,52.70295496,-1.975051182,Cannock Chase<br>Pop: 100762
East Staffordshire,52.88179174,-1.817218959,East Staffordshire<br>Pop: 119754
Lichfield,52.70348261,-1.791657727,Lichfield<br>Pop: 104756
Newcastle-under-Lyme,52.98825491,-2.327986977,Newcastle-under-Lyme<br>Pop: 129441
South Staffordshire,52.62333145,-2.177927629,South Staffordshire<br>Pop: 112436
Stafford,52.84543026,-2.179644185,Stafford<br>Pop: 137280
Staffordshire Moorlands,53.07448966,-1.965801175,Staffordshire Moorlands<br>Pop: 98435
Tamworth,52.62059354,-1.681900485,Tamworth<br>Pop: 76696
Babergh,52.03036077,1.16417968,Babergh<br>Pop: 92036
Forest Heath,52.32938394,0.515823026,Forest Heath<br>Pop: 65399
Ipswich,52.05730488,1.152883856,Ipswich<br>Pop: 136913
Mid Suffolk,52.24707892,1.10569679,Mid Suffolk<br>Pop: 103895
St Edmundsbury,52.20680326,0.670984896,St Edmundsbury<br>Pop: 113482
Suffolk Coastal,52.04704837,1.462388333,Suffolk Coastal<br>Pop: 428506
Waveney,52.31366502,1.668647092,Waveney<br>Pop: 118311
Elmbridge,51.35672509,-0.409556907,Elmbridge<br>Pop: 136795
Epsom and Ewell,51.33814882,-0.259749196,Epsom and Ewell<br>Pop: 80627
Guildford,51.25230494,-0.554778305,Guildford<br>Pop: 148998
Mole Valley,51.20829989,-0.300099736,Mole Valley<br>Pop: 87245
Reigate and Banstead,51.23596827,-0.201026718,Reigate and Banstead<br>Pop: 148748
Runnymede,51.38696776,-0.522239861,Runnymede<br>Pop: 89424
Spelthorne,51.41907848,-0.462302767,Spelthorne<br>Pop: 99844
Surrey Heath,51.3322628,-0.679527281,Surrey Heath<br>Pop: 89305
Tandridge,51.22633795,-0.037261441,Tandridge<br>Pop: 88129
Waverley,51.15289056,-0.640026498,Waverley<br>Pop: 126328
Woking,51.31223346,-0.536154106,Woking<br>Pop: 100793
North Warwickshire,52.55381446,-1.630974657,North Warwickshire<br>Pop: 65264
Nuneaton and Bedworth,52.49768283,-1.478547165,Nuneaton and Bedworth<br>Pop: 129883
Rugby,52.3525239,-1.323189474,Rugby<br>Pop: 108935
Stratford-on-Avon,52.17560392,-1.613410967,Stratford-on-Avon<br>Pop: 130098
Warwick,52.306833,-1.591721474,Warwick<br>Pop: 143753
Adur,50.84485168,-0.2607142,Adur<br>Pop: 64301
Arun,50.86850919,-0.531831112,Arun<br>Pop: 160758
Chichester,50.75968385,-0.754084586,Chichester<br>Pop: 121129
Crawley,51.12942716,-0.200877291,Crawley<br>Pop: 112409
Horsham,50.94335729,-0.534822314,Horsham<br>Pop: 143791
Mid Sussex,51.02104985,-0.102326291,Mid Sussex<br>Pop: 151022
Worthing,50.83488985,-0.388125997,Worthing<br>Pop: 110570
Bromsgrove,52.3763617,-2.02094832,Bromsgrove<br>Pop: 99881
Malvern Hills,52.2139766,-2.389993056,Malvern Hills<br>Pop: 78698
Redditch,52.27600576,-1.955356403,Redditch<br>Pop: 85261
Worcester,52.18991718,-2.225541198,Worcester<br>Pop: 101222
Wychavon,52.17170406,-2.045281932,Wychavon<br>Pop: 129433
Wyre Forest,52.36953275,-2.287472465,Wyre Forest<br>Pop: 101291
St Albans,51.76253796,-0.338502459,St Albans<br>Pop: 148452
Welwyn Hatfield,51.78960529,-0.197194838,Welwyn Hatfield<br>Pop: 123043
East Hertfordshire,51.8628961,-0.00054933,East Hertfordshire<br>Pop: 149748
Stevenage,51.90356499,-0.190732418,Stevenage<br>Pop: 87845
Bolton,53.57678907,-2.4878472,Bolton<br>Pop: 287550
Bury,53.5880054,-2.310079822,Bury<br>Pop: 190990
Manchester,53.44820657,-2.235208481,Manchester<br>Pop: 552858
Oldham,53.54274662,-2.07890096,Oldham<br>Pop: 237110
Rochdale,53.6131458,-2.17262931,Rochdale<br>Pop: 222412
Salford,53.49587866,-2.369213768,Salford<br>Pop: 258834
Stockport,53.38986568,-2.129309644,Stockport<br>Pop: 293423
Tameside,53.4715922,-2.077136215,Tameside<br>Pop: 226493
Trafford,53.40250467,-2.353331917,Trafford<br>Pop: 237354
Wigan,53.53264719,-2.601541518,Wigan<br>Pop: 328662
Knowsley,53.42513125,-2.837986999,Knowsley<br>Pop: 150862
Liverpool,53.41154951,-2.908425908,Liverpool<br>Pop: 498042
St. Helens,53.46026082,-2.691809961,St. Helens<br>Pop: 180585
Sefton,53.68469164,-2.949868108,Sefton<br>Pop: 276410
Wirral,53.30727097,-3.113652471,Wirral<br>Pop: 324011
Barnsley,53.5337272,-1.537654871,Barnsley<br>Pop: 246866
Doncaster,53.54573592,-1.161461497,Doncaster<br>Pop: 311890
Rotherham,53.40639645,-1.271508053,Rotherham<br>Pop: 265411
Sheffield,53.39877736,-1.551537011,Sheffield<br>Pop: 584853
Newcastle upon Tyne,55.00565444,-1.64660211,Newcastle upon Tyne<br>Pop: 302820
North Tyneside,55.02810295,-1.513400943,North Tyneside<br>Pop: 207913
South Tyneside,54.9718977,-1.436364223,South Tyneside<br>Pop: 150976
Sunderland,54.86801779,-1.418920179,Sunderland<br>Pop: 277705
Birmingham,52.47713803,-1.874923984,Birmingham<br>Pop: 1141816
Coventry,52.42047834,-1.532465536,Coventry<br>Pop: 371521
Dudley,52.48395198,-2.092289885,Dudley<br>Pop: 321596
Sandwell,52.5088859,-2.014182429,Sandwell<br>Pop: 328450
Solihull,52.41604205,-1.730668517,Solihull<br>Pop: 216374
Walsall,52.6012105,-1.982748181,Walsall<br>Pop: 285478
Wolverhampton,52.58658623,-2.123824631,Wolverhampton<br>Pop: 263357
Bradford,53.83573747,-1.790902784,Bradford<br>Pop: 539776
Calderdale,53.71307217,-1.935891505,Calderdale<br>Pop: 211455
Kirklees,53.65547506,-1.717376051,Kirklees<br>Pop: 439787
Leeds,53.8329218,-1.540304189,Leeds<br>Pop: 793139
Wakefield,53.6485199,-1.42553002,Wakefield<br>Pop: 348312
Gateshead,54.93084368,-1.688723404,Gateshead<br>Pop: 202055
City of London,51.515602,-0.091357678,City of London<br>Pop: 9721
Barking and Dagenham,51.53682167,0.070456785,Barking and Dagenham<br>Pop: 212906
Barnet,51.61411994,-0.206948615,Barnet<br>Pop: 395869
Bexley,51.45833728,0.199030665,Bexley<br>Pop: 248287
Brent,51.55648974,-0.264146596,Brent<br>Pop: 329771
Bromley,51.38285379,0.043675129,Bromley<br>Pop: 332336
Camden,51.54185122,-0.154567467,Camden<br>Pop: 270029
Croydon,51.35170408,-0.092707007,Croydon<br>Pop: 386710
Ealing,51.5212514,-0.322686038,Ealing<br>Pop: 341806
Enfield,51.6457844,-0.101495455,Enfield<br>Pop: 333794
Greenwich,51.48168205,-0.02067676,Greenwich<br>Pop: 287942
Hackney,51.54876636,-0.064642999,Hackney<br>Pop: 281120
Hammersmith and Fulham,51.5002462,-0.225261916,Hammersmith and Fulham<br>Pop: 185143
Haringey,51.5896773,-0.113670657,Haringey<br>Pop: 268647
Harrow,51.5924182,-0.344168466,Harrow<br>Pop: 251160
Havering,51.55299288,0.219930827,Havering<br>Pop: 259552
Hillingdon,51.5405594,-0.456178621,Hillingdon<br>Pop: 306870
Hounslow,51.4685629,-0.320549466,Hounslow<br>Pop: 271523
Islington,51.54507821,-0.106789396,Islington<br>Pop: 242467
Kensington and Chelsea,51.50451454,-0.195157073,Kensington and Chelsea<br>Pop: 156129
Kingston upon Thames,51.38717124,-0.289285312,Kingston upon Thames<br>Pop: 177507
Lambeth,51.45528614,-0.117056701,Lambeth<br>Pop: 326034
Lewisham,51.4495667,-0.018526484,Lewisham<br>Pop: 305842
Merton,51.40999355,-0.183828427,Merton<br>Pop: 206548
Newham,51.52901973,0.032286384,Newham<br>Pop: 353134
Redbridge,51.5853876,0.069165129,Redbridge<br>Pop: 305222
Richmond upon Thames,51.44530639,-0.324128903,Richmond upon Thames<br>Pop: 198019
Southwark,51.47652866,-0.069716187,Southwark<br>Pop: 318830
Sutton,51.35850924,-0.17055726,Sutton<br>Pop: 206349
Tower Hamlets,51.5155709,-0.032353642,Tower Hamlets<br>Pop: 324745
Waltham Forest,51.59315001,-0.005791144,Waltham Forest<br>Pop: 276983
Wandsworth,51.45449202,-0.179676893,Wandsworth<br>Pop: 329677
Westminster,51.51508643,-0.161887838,Westminster<br>Pop: 261317
